{
  "locations": [
    {
      "name": "San Francisco",
      "center": {
        "lat": 37.774,
        "lng": -122.419
      },
      "zoom": 12,
      "activities": [
        {
          "title": "MOMA",
          "url": "https://www.sfmoma.org",
          "address": "151 3rd St",
          "state": "San Francisco, CA 94103",
          "position": {
            "lat": 37.785,
            "lng": -122.401
          },
          "marker": "1"
        },
        {
          "title": "California Academy of Sciences",
          "url": "https://www.calacademy.org",
          "address": "55 Music Concourse Dr",
          "state": "San Francisco, CA 94118",
          "position": {
            "lat": 37.769,
            "lng": -122.466
          },
          "marker": "2"
        },
        {
          "title": "Marina District",
          "url": "https://www.sfgate.com/neighborhoods/sf/marina",
          "address": "San Francisco, CA 94123",
          "position": {
            "lat": 37.803,
            "lng": -122.436
          },
          "marker": "3"
        },
        {
          "title": "Ferry Building",
          "url": "https://www.ferrybuildingmarketplace.com",
          "address": "Ferry Building, One San Francisco Bay Trail",
          "state": "San Francisco, CA 94111",
          "position": {
            "lat": 37.795,
            "lng": -122.393
          },
          "marker": "4"
        }
      ],
      "food": [
        {
          "title": "La Taqueria",
          "address": "2889 Mission St",
          "state": "San Francisco, CA 94110",
          "url": "https://facebook.com/LaTaqSF/",
          "position": {
            "lat": 37.750,
            "lng": -122.418
          },
          "marker": "5"
        },
        {
          "title": "Tartine Manufactory",
          "address": "595 Alabama St",
          "state": "San Francisco, CA 94110",
          "url": "https://www.tartinemanufactory.com",
          "position": {
            "lat": 37.761,
            "lng": -122.411
          },
          "marker": "6"
        },
        {
          "title": "Sotto Mare",
          "address": "552 Green St",
          "state": "San Francisco, CA 94133",
          "url": "https://www.sottomaresf.com",
          "position": {
            "lat": 37.799,
            "lng": -122.408
          },
          "marker": "7"
        },
        {
          "title": "Buena Vista Cafe",
          "address": "2765 Hyde St",
          "state": "San Francisco, CA 94109",
          "url": "https://www.thebuenavista.com",
          "position": {
            "lat": 37.806,
            "lng": -122.420
          },
          "marker": "8"
        }
      ]
    },
    {
      "name": "Nappa / Sonoma",
      "center": {
        "lat": 38.502,
        "lng": -122.265
      },
      "zoom": 9,
      "activities": [
        {
          "title": "Landmark Vineyard",
          "url": "https://www.landmarkwine.com",
          "address": "101 Adobe Canyon Rd",
          "state": "Kenwood, CA 95452",
          "position": {
            "lat": 38.426,
            "lng": -122.556
          },
          "marker": "1"
        },
        {
          "title": "Spottswoode Winery",
          "url": "https://www.www.spottswoode.com",
          "address": "1902 Madrona Ave",
          "state": "St Helena, CA 94574",
          "position": {
            "lat": 38.500,
            "lng": -122.478
          },
          "marker": "2"
        },
        {
          "title": "Promontory Wines",
          "url": "https://www.promontory.wine",
          "address": "1601 Oakville Grade Rd",
          "state": "Oakville, CA 94562",
          "position": {
            "lat": 38.421,
            "lng": -122.414
          },
          "marker": "3"
        }
      ],
      "food": [
        {
          "title": "The Freemont Dinner",
          "address": "2698 Fremont Drive",
          "state": "Sonoma, CA 95476",
          "url": "https://www.thefremontdiner.com",
          "position": {
            "lat": 38.246,
            "lng": -122.417
          },
          "marker": "4"
        },
        {
          "title": "Southside Cafe",
          "address": "2770 Old Sonoma Rd",
          "state": "Napa, CA 94558",
          "url": "https://www.southsidenapa.com",
          "position": {
            "lat": 38.287,
            "lng": -122.309
          },
          "marker": "5"
        }
      ]
    },
    {
      "name": "South Bay",
      "center": {
        "lat": 37.235,
        "lng": -121.962
      },
      "zoom": 10,
      "activities": [
        {
          "title": "Sarah's Vineyard",
          "url": "https://www.sarahsvineyard.com",
          "address": "4005 Hecker Pass Hwy",
          "state": "Gilroy, CA 95020",
          "position": {
            "lat": 37.774,
            "lng": -122.419
          },
          "marker": "1"
        },
        {
          "title": "Martin Ranch Winery",
          "url": "https://www.martinranchwinery.com",
          "address": "6675 Redwood Retreat Rd",
          "state": "Gilroy, CA 95020",
          "position": {
            "lat": 37.013,
            "lng": -121.644
          },
          "marker": "2"
        },
        {
          "title": "Clos LaChance Winery",
          "url": "http://www.clos.com/",
          "address": "1 Hummingbird Ln",
          "state": "San Martin, CA 95046",
          "position": {
            "lat": 37.0728,
            "lng": -121.643
          },
          "marker": "3"
        },
        {
          "title": "Los Gatos Farmers' Market",
          "url": "http://www.cafarmersmkts.com/losgatos-farmers-market",
          "address": "Montebello Way",
          "state": "Los Gatos, CA 95030",
          "position": {
            "lat": 37.222,
            "lng": -121.984
          },
          "marker": "4"
        },
        {
          "title": "Los Gatos Creek Trail",
          "url": "https://www.losgatosca.gov/907/Los-Gatos-Creek-Trail",
          "address": "East Main st & College ave",
          "state": "Los Gatos, CA 95030",
          "position": {
            "lat": 37.264,
            "lng": -121.950
          },
          "marker": "5"
        }
      ],
      "food": [
        {
          "title": "Andales",
          "url": "https://www.andalemexican.com",
          "address": "6 N Santa Cruz Ave",
          "state": "Los Gatos, CA 95030",
          "position": {
            "lat": 37.223,
            "lng": -121.983
          },
          "marker": "6"
        },
        {
          "title": "Icing on The Cake",
          "url": "https://www.icingonthecakebakery.com/cakes",
          "address": "50 W Main St",
          "state": "Los Gatos, CA 95030",
          "position": {
            "lat": 37.222,
            "lng": -121.982
          },
          "marker": "7"
        },
        {
          "title": "Steamer's Grillhouse",
          "url": "http://www.steamers-restaurant.com/",
          "address": "31 University Ave",
          "state": "Los Gatos, CA 95030",
          "position": {
            "lat": 37.223,
            "lng": -121.982
          },
          "marker": "8"
        },
        {
          "title": "Manresa Bread",
          "url": "http://manresabread.com/",
          "address": "276 N Santa Cruz Ave",
          "state": "Los Gatos, CA 95030",
          "position": {
            "lat": 37.227,
            "lng": -121.981
          },
          "marker": "9"
        },
        {
          "title": "Oak & Rye",
          "url": "http://oakandryepizza.com/",
          "address": "303 N Santa Cruz Ave",
          "state": "Los Gatos, CA 95030",
          "position": {
            "lat": 37.227,
            "lng": -121.981
          },
          "marker": "10"
        }
      ]
    }
  ]
}